[{"lng":"-75.498074","lat":"40.047992","stopid":"29305","stopname":"Cedar Hollow Rd &amp; Industrial Blvd"},{"lng":"-75.498109","lat":"40.04834","stopid":"29300","stopname":"Cedar Hollow Rd &amp; Jacqueline Dr"},{"lng":"-75.51064","lat":"40.055857","stopid":"29322","stopname":"Cedar Hollow Rd &amp; Swedesford Rd - MBFS"},{"lng":"-75.510593","lat":"40.056036","stopid":"32084","stopname":"Cedar Hollow Rd &amp; Swedesford Rd - MBNS"},{"lng":"-75.499094","lat":"40.051437","stopid":"29301","stopname":"Cedar Hollow Rd &amp; Vanguard Blvd"},{"lng":"-75.499224","lat":"40.051321","stopid":"29304","stopname":"Cedar Hollow Rd &amp; Vanguard Blvd - FS"},{"lng":"-75.514465","lat":"40.060067","stopid":"32087","stopname":"Chesterfield Pkwy &amp; 300"},{"lng":"-75.514394","lat":"40.060264","stopid":"32467","stopname":"Chesterfield Pkwy &amp; 300"},{"lng":"-75.515742","lat":"40.059477","stopid":"32085","stopname":"Chesterfield Pkwy &amp; 600"},{"lng":"-75.515825","lat":"40.059611","stopid":"32468","stopname":"Chesterfield Pkwy &amp; 600"},{"lng":"-75.516426","lat":"40.057879","stopid":"32086","stopname":"Chesterfield Pkwy &amp; Swedesford Rd - MBFS"},{"lng":"-75.516639","lat":"40.057879","stopid":"32466","stopname":"Chesterfield Pkwy &amp; Swedesford Rd - MBNS"},{"lng":"-75.537274","lat":"40.072947","stopid":"32515","stopname":"General Warren Blvd &amp; Morehall Rd"},{"lng":"-75.539465","lat":"40.074659","stopid":"15301","stopname":"General Warren Blvd &amp; Otis - FS"},{"lng":"-75.546246","lat":"40.061711","stopid":"29273","stopname":"Great Valley Pkwy &amp; 125 Bldg"},{"lng":"-75.544718","lat":"40.060356","stopid":"29272","stopname":"Great Valley Pkwy &amp; 155 Bldg"},{"lng":"-75.543583","lat":"40.060616","stopid":"29274","stopname":"Great Valley Pkwy &amp; 201 Bldg"},{"lng":"-75.541254","lat":"40.061171","stopid":"29275","stopname":"Great Valley Pkwy &amp; 257 275 Bldg"},{"lng":"-75.54075","lat":"40.06392","stopid":"29269","stopname":"Great Valley Pkwy &amp; 27 43 Bldg"},{"lng":"-75.543115","lat":"40.063329","stopid":"29788","stopname":"Great Valley Pkwy &amp; 45 67 Bldg"},{"lng":"-75.545467","lat":"40.062738","stopid":"29271","stopname":"Great Valley Pkwy &amp; 77 123 Bldg"},{"lng":"-75.535735","lat":"40.063648","stopid":"29277","stopname":"Great Valley Pkwy &amp; Morehall Rd"},{"lng":"-75.537107","lat":"40.063486","stopid":"30412","stopname":"Great Valley Pkwy &amp; Morehall Rd - MBFS"},{"lng":"-75.538713","lat":"40.062048","stopid":"29276","stopname":"Great Valley Pkwy &amp; Technology Dr"},{"lng":"-75.499335","lat":"40.044261","stopid":"30623","stopname":"Industrial Blvd &amp; Paoli Hospital"},{"lng":"-75.499548","lat":"40.044225","stopid":"30625","stopname":"Industrial Blvd &amp; Paoli Hospital"},{"lng":"-75.504055","lat":"40.046632","stopid":"32517","stopname":"Industrial Blvd &amp; West Industrial Blvd"},{"lng":"-75.503925","lat":"40.046552","stopid":"32518","stopname":"Industrial Blvd &amp; West Industrial Blvd"},{"lng":"-75.492735","lat":"40.041649","stopid":"19380","stopname":"Lancaster Av &amp; Cedar Hollow Rd"},{"lng":"-75.493184","lat":"40.041506","stopid":"19388","stopname":"Lancaster Av &amp; Cedar Hollow Rd"},{"lng":"-75.498316","lat":"40.041994","stopid":"29765","stopname":"Lancaster Av &amp; Central Av"},{"lng":"-75.488006","lat":"40.041821","stopid":"19379","stopname":"Lancaster Av &amp; Plank Av"},{"lng":"-75.488218","lat":"40.041678","stopid":"19389","stopname":"Lancaster Av &amp; Plank Av"},{"lng":"-75.526852","lat":"40.054721","stopid":"29191","stopname":"Liberty Blvd &amp; Morehall Rd - MBFS"},{"lng":"-75.526581","lat":"40.055114","stopid":"29282","stopname":"Liberty Blvd &amp; Morehall Rd - MBNS"},{"lng":"-75.523909","lat":"40.055875","stopid":"29281","stopname":"Liberty Blvd &amp; Swedesford Rd - MBFS"},{"lng":"-75.523873","lat":"40.055634","stopid":"31860","stopname":"Liberty Blvd &amp; Swedesford Rd - MBNS"},{"lng":"-75.536248","lat":"40.066647","stopid":"32519","stopname":"Morehall Rd &amp; Atwater Dr - FS"},{"lng":"-75.536425","lat":"40.066396","stopid":"32516","stopname":"Morehall Rd &amp; Flat Rd"},{"lng":"-75.535488","lat":"40.064603","stopid":"30619","stopname":"Morehall Rd &amp; Great Valley - FS"},{"lng":"-75.528189","lat":"40.054756","stopid":"30617","stopname":"Morehall Rd &amp; Liberty Blvd - FS"},{"lng":"-75.528996","lat":"40.057317","stopid":"30618","stopname":"Morehall Rd &amp; Valley Stream Pkwy - FS"},{"lng":"-75.529173","lat":"40.057031","stopid":"30627","stopname":"Morehall Rd &amp; Valley Stream Pkwy - FS"},{"lng":"-75.484057","lat":"40.042367","stopid":"1874","stopname":"Paoli Regional Rail Station"},{"lng":"-75.519402","lat":"40.054941","stopid":"29263","stopname":"Swedesford Rd &amp; Liberty Blvd - MBFS"},{"lng":"-75.520336","lat":"40.054949","stopid":"1872","stopname":"Swedesford Rd &amp; Liberty Blvd - MBNS"},{"lng":"-75.517783","lat":"40.055522","stopid":"29189","stopname":"Swedesford Rd &amp; Valley Stream Pkwy"},{"lng":"-75.517523","lat":"40.055951","stopid":"32469","stopname":"Swedesford Rd &amp; Valley Stream Pkwy"}]