[{"lng":"-75.138365","lat":"40.035972","stopid":"16054","stopname":"10th St &amp; Clarkson Av"},{"lng":"-75.139389","lat":"40.031351","stopid":"16071","stopname":"10th St &amp; Duncannon Av"},{"lng":"-75.139088","lat":"40.032743","stopid":"16067","stopname":"10th St &amp; Fisher Av - FS"},{"lng":"-75.139726","lat":"40.029799","stopid":"16133","stopname":"10th St &amp; Lindley Av"},{"lng":"-75.138016","lat":"40.037622","stopid":"28699","stopname":"10th St &amp; Olney Av"},{"lng":"-75.140377","lat":"40.026819","stopid":"16135","stopname":"10th St &amp; Rockland St"},{"lng":"-75.14004","lat":"40.0283","stopid":"16134","stopname":"10th St &amp; Ruscomb St"},{"lng":"-75.138185","lat":"40.036837","stopid":"16053","stopname":"10th St &amp; Tabor Rd"},{"lng":"-75.139886","lat":"40.034217","stopid":"28693","stopname":"10th St &amp; Wagner Av"},{"lng":"-75.140028","lat":"40.034173","stopid":"16061","stopname":"10th St &amp; Wagner Av - FS"},{"lng":"-75.139156","lat":"40.039051","stopid":"17398","stopname":"11th St &amp; Chew St - FS"},{"lng":"-75.13982","lat":"40.035984","stopid":"17396","stopname":"11th St &amp; Clarkson Av"},{"lng":"-75.139313","lat":"40.041436","stopid":"21534","stopname":"11th St &amp; Nedro Av - FS"},{"lng":"-75.139434","lat":"40.037786","stopid":"28694","stopname":"11th St &amp; Olney Av"},{"lng":"-75.140108","lat":"40.034717","stopid":"17394","stopname":"11th St &amp; Somerville Av - FS"},{"lng":"-75.139591","lat":"40.037019","stopid":"30304","stopname":"11th St &amp; Tabor Rd"},{"lng":"-75.140054","lat":"40.042313","stopid":"28695","stopname":"12th St &amp; Nedro Av"},{"lng":"-75.165356","lat":"39.952797","stopid":"515","stopname":"15th St &amp; Market St"},{"lng":"-75.140711","lat":"40.017315","stopid":"17375","stopname":"9th St &amp; Bristol St"},{"lng":"-75.14084","lat":"40.017485","stopid":"16146","stopname":"9th St &amp; Bristol St - FS"},{"lng":"-75.142525","lat":"40.009831","stopid":"16158","stopname":"9th St &amp; Butler St"},{"lng":"-75.142396","lat":"40.009661","stopid":"17368","stopname":"9th St &amp; Butler St"},{"lng":"-75.140515","lat":"40.018965","stopid":"16140","stopname":"9th St &amp; Cayuga St"},{"lng":"-75.140385","lat":"40.018822","stopid":"17377","stopname":"9th St &amp; Cayuga St"},{"lng":"-75.139794","lat":"40.021945","stopid":"16138","stopname":"9th St &amp; Courtland St"},{"lng":"-75.137641","lat":"40.030981","stopid":"17389","stopname":"9th St &amp; Duncannon Av"},{"lng":"-75.142827","lat":"40.008252","stopid":"141","stopname":"9th St &amp; Erie Av"},{"lng":"-75.14271","lat":"40.008037","stopid":"167","stopname":"9th St &amp; Erie Av"},{"lng":"-75.137315","lat":"40.032533","stopid":"17390","stopname":"9th St &amp; Fisher Av"},{"lng":"-75.141189","lat":"40.015879","stopid":"16147","stopname":"9th St &amp; Hunting Park Av"},{"lng":"-75.141072","lat":"40.015736","stopid":"17374","stopname":"9th St &amp; Hunting Park Av"},{"lng":"-75.137978","lat":"40.029447","stopid":"17387","stopname":"9th St &amp; Lindley Av"},{"lng":"-75.138966","lat":"40.02496","stopid":"28692","stopname":"9th St &amp; Loudon St"},{"lng":"-75.139143","lat":"40.024897","stopid":"16136","stopname":"9th St &amp; Loudon St - FS"},{"lng":"-75.141734","lat":"40.012622","stopid":"17370","stopname":"9th St &amp; Luzerne St"},{"lng":"-75.141912","lat":"40.01256","stopid":"16156","stopname":"9th St &amp; Luzerne St - FS"},{"lng":"-75.141538","lat":"40.014291","stopid":"16148","stopname":"9th St &amp; Lycoming St"},{"lng":"-75.141409","lat":"40.01413","stopid":"17372","stopname":"9th St &amp; Lycoming St"},{"lng":"-75.142059","lat":"40.011142","stopid":"17369","stopname":"9th St &amp; Pike St"},{"lng":"-75.142249","lat":"40.01108","stopid":"16157","stopname":"9th St &amp; Pike St - FS"},{"lng":"-75.138641","lat":"40.026449","stopid":"17384","stopname":"9th St &amp; Rockland St"},{"lng":"-75.139916","lat":"40.02082","stopid":"17379","stopname":"9th St &amp; Roosevelt Blvd"},{"lng":"-75.13958","lat":"40.022221","stopid":"17381","stopname":"9th St &amp; Roosevelt Blvd - FS"},{"lng":"-75.138304","lat":"40.027939","stopid":"17386","stopname":"9th St &amp; Ruscomb St"},{"lng":"-75.140226","lat":"40.020241","stopid":"16139","stopname":"9th St &amp; Wingohocking St - FS"},{"lng":"-75.139444","lat":"40.023577","stopid":"16137","stopname":"9th St &amp; Wyoming Av"},{"lng":"-75.139315","lat":"40.023363","stopid":"17382","stopname":"9th St &amp; Wyoming Av"},{"lng":"-75.152793","lat":"40.001464","stopid":"165","stopname":"Broad St &amp; Allegheny Av"},{"lng":"-75.152957","lat":"40.001705","stopid":"21194","stopname":"Broad St &amp; Allegheny Av"},{"lng":"-75.163048","lat":"39.9543","stopid":"17261","stopname":"Broad St &amp; Arch St"},{"lng":"-75.163319","lat":"39.954524","stopid":"5131","stopname":"Broad St &amp; Arch St"},{"lng":"-75.165618","lat":"39.942641","stopid":"5135","stopname":"Broad St &amp; Bainbridge St"},{"lng":"-75.165819","lat":"39.942632","stopid":"15192","stopname":"Broad St &amp; Bainbridge St - FS"},{"lng":"-75.157322","lat":"39.981812","stopid":"17160","stopname":"Broad St &amp; Berks St"},{"lng":"-75.172013","lat":"39.914398","stopid":"5140","stopname":"Broad St &amp; Bigler St"},{"lng":"-75.171706","lat":"39.914415","stopid":"17232","stopname":"Broad St &amp; Bigler St - FS"},{"lng":"-75.160068","lat":"39.968002","stopid":"17269","stopname":"Broad St &amp; Brown St"},{"lng":"-75.160363","lat":"39.967958","stopid":"5144","stopname":"Broad St &amp; Brown St"},{"lng":"-75.162178","lat":"39.959689","stopid":"17169","stopname":"Broad St &amp; Callowhill St"},{"lng":"-75.161894","lat":"39.959679","stopid":"17264","stopname":"Broad St &amp; Callowhill St - FS"},{"lng":"-75.166564","lat":"39.939198","stopid":"15196","stopname":"Broad St &amp; Carpenter St"},{"lng":"-75.166435","lat":"39.938858","stopid":"5150","stopname":"Broad St &amp; Carpenter St"},{"lng":"-75.166203","lat":"39.940911","stopid":"15194","stopname":"Broad St &amp; Catherine St"},{"lng":"-75.16605","lat":"39.940687","stopid":"5152","stopname":"Broad St &amp; Catherine St"},{"lng":"-75.157972","lat":"39.978761","stopid":"17162","stopname":"Broad St &amp; Cecil B Moore Av"},{"lng":"-75.157819","lat":"39.978502","stopid":"17277","stopname":"Broad St &amp; Cecil B Moore Av"},{"lng":"-75.164125","lat":"39.950482","stopid":"15185","stopname":"Broad St &amp; Chestnut St - FS"},{"lng":"-75.166371","lat":"39.940152","stopid":"15195","stopname":"Broad St &amp; Christian St"},{"lng":"-75.166219","lat":"39.939902","stopid":"5166","stopname":"Broad St &amp; Christian St"},{"lng":"-75.153093","lat":"40.000153","stopid":"17297","stopname":"Broad St &amp; Clearfield St - FS"},{"lng":"-75.153366","lat":"39.999877","stopid":"5169","stopname":"Broad St &amp; Clearfield St - FS"},{"lng":"-75.155314","lat":"39.990965","stopid":"17135","stopname":"Broad St &amp; Cumberland St"},{"lng":"-75.155138","lat":"39.990759","stopid":"17286","stopname":"Broad St &amp; Cumberland St"},{"lng":"-75.1731","lat":"39.910715","stopid":"17209","stopname":"Broad St &amp; Curtain St"},{"lng":"-75.172665","lat":"39.910446","stopid":"17229","stopname":"Broad St &amp; Curtin St"},{"lng":"-75.155964","lat":"39.987994","stopid":"17137","stopname":"Broad St &amp; Dauphin St"},{"lng":"-75.155799","lat":"39.987762","stopid":"17283","stopname":"Broad St &amp; Dauphin St"},{"lng":"-75.156661","lat":"39.984827","stopid":"17158","stopname":"Broad St &amp; Diamond St"},{"lng":"-75.156437","lat":"39.984854","stopid":"17281","stopname":"Broad St &amp; Diamond St - FS"},{"lng":"-75.168208","lat":"39.93182","stopid":"17187","stopname":"Broad St &amp; Dickinson St"},{"lng":"-75.168044","lat":"39.931579","stopid":"17245","stopname":"Broad St &amp; Dickinson St"},{"lng":"-75.16708","lat":"39.936861","stopid":"17177","stopname":"Broad St &amp; Ellsworth St"},{"lng":"-75.166916","lat":"39.93661","stopid":"17249","stopname":"Broad St &amp; Ellsworth St"},{"lng":"-75.167308","lat":"39.935835","stopid":"17180","stopname":"Broad St &amp; Federal St"},{"lng":"-75.167144","lat":"39.935575","stopid":"17248","stopname":"Broad St &amp; Federal St"},{"lng":"-75.165987","lat":"39.941919","stopid":"15193","stopname":"Broad St &amp; Fitzwater St"},{"lng":"-75.165834","lat":"39.941668","stopid":"5195","stopname":"Broad St &amp; Fitzwater St"},{"lng":"-75.173388","lat":"39.90943","stopid":"150","stopname":"Broad St &amp; Geary St"},{"lng":"-75.172929","lat":"39.909135","stopid":"158","stopname":"Broad St &amp; Geary St"},{"lng":"-75.15957","lat":"39.97158","stopid":"143","stopname":"Broad St &amp; Girard Av"},{"lng":"-75.159335","lat":"39.971285","stopid":"164","stopname":"Broad St &amp; Girard Av"},{"lng":"-75.154027","lat":"39.996888","stopid":"17129","stopname":"Broad St &amp; Glenwood Av"},{"lng":"-75.153851","lat":"39.996674","stopid":"17291","stopname":"Broad St &amp; Glenwood Av"},{"lng":"-75.16129","lat":"39.963444","stopid":"17167","stopname":"Broad St &amp; Green St"},{"lng":"-75.161053","lat":"39.963667","stopid":"17266","stopname":"Broad St &amp; Green St"},{"lng":"-75.172816","lat":"39.907778","stopid":"25239","stopname":"Broad St &amp; Hartranft St"},{"lng":"-75.173652","lat":"39.90819","stopid":"31309","stopname":"Broad St &amp; Hartranft St"},{"lng":"-75.15499","lat":"39.992473","stopid":"17134","stopname":"Broad St &amp; Huntingdon St"},{"lng":"-75.154813","lat":"39.992267","stopid":"17287","stopname":"Broad St &amp; Huntingdon St"},{"lng":"-75.153631","lat":"39.998637","stopid":"17127","stopname":"Broad St &amp; Indiana Av"},{"lng":"-75.153454","lat":"39.998449","stopid":"17296","stopname":"Broad St &amp; Indiana Av"},{"lng":"-75.169893","lat":"39.923033","stopid":"17237","stopname":"Broad St &amp; Jackson St"},{"lng":"-75.170057","lat":"39.923256","stopid":"5221","stopname":"Broad St &amp; Jackson St"},{"lng":"-75.158609","lat":"39.97596","stopid":"17163","stopname":"Broad St &amp; Jefferson St"},{"lng":"-75.158361","lat":"39.975745","stopid":"17275","stopname":"Broad St &amp; Jefferson St"},{"lng":"-75.154524","lat":"39.993766","stopid":"17288","stopname":"Broad St &amp; Lehigh Av"},{"lng":"-75.154773","lat":"39.993498","stopid":"17133","stopname":"Broad St &amp; Lehigh Av - FS"},{"lng":"-75.164594","lat":"39.948297","stopid":"15187","stopname":"Broad St &amp; Locust St"},{"lng":"-75.164453","lat":"39.948082","stopid":"5229","stopname":"Broad St &amp; Locust St"},{"lng":"-75.165351","lat":"39.944764","stopid":"15190","stopname":"Broad St &amp; Lombard St"},{"lng":"-75.16521","lat":"39.944514","stopid":"5233","stopname":"Broad St &amp; Lombard St"},{"lng":"-75.158662","lat":"39.974381","stopid":"17274","stopname":"Broad St &amp; Master St"},{"lng":"-75.158897","lat":"39.974613","stopid":"5252","stopname":"Broad St &amp; Master St"},{"lng":"-75.169517","lat":"39.925692","stopid":"17195","stopname":"Broad St &amp; McKean St"},{"lng":"-75.169341","lat":"39.925468","stopid":"17239","stopname":"Broad St &amp; McKean St"},{"lng":"-75.169265","lat":"39.926967","stopid":"17194","stopname":"Broad St &amp; Mifflin St"},{"lng":"-75.1691","lat":"39.926717","stopid":"17240","stopname":"Broad St &amp; Mifflin St"},{"lng":"-75.157647","lat":"39.980305","stopid":"17161","stopname":"Broad St &amp; Montgomery Av"},{"lng":"-75.157422","lat":"39.980376","stopid":"17278","stopname":"Broad St &amp; Montgomery Av - FS"},{"lng":"-75.168989","lat":"39.928181","stopid":"17192","stopname":"Broad St &amp; Moore St"},{"lng":"-75.168836","lat":"39.927922","stopid":"17241","stopname":"Broad St &amp; Moore St"},{"lng":"-75.168713","lat":"39.929403","stopid":"17190","stopname":"Broad St &amp; Morris St"},{"lng":"-75.168548","lat":"39.929153","stopid":"17243","stopname":"Broad St &amp; Morris St"},{"lng":"-75.156998","lat":"39.983266","stopid":"17159","stopname":"Broad St &amp; Norris St"},{"lng":"-75.156833","lat":"39.983043","stopid":"17280","stopname":"Broad St &amp; Norris St"},{"lng":"-75.17125","lat":"39.916565","stopid":"31307","stopname":"Broad St &amp; Oregon Av - 2"},{"lng":"-75.171616","lat":"39.916423","stopid":"20960","stopname":"Broad St &amp; Oregon Av - FS"},{"lng":"-75.158108","lat":"39.977128","stopid":"17276","stopname":"Broad St &amp; Oxford St"},{"lng":"-75.158321","lat":"39.977129","stopid":"5273","stopname":"Broad St &amp; Oxford St - FS"},{"lng":"-75.159864","lat":"39.968868","stopid":"17270","stopname":"Broad St &amp; Parrish St"},{"lng":"-75.160135","lat":"39.969091","stopid":"5277","stopname":"Broad St &amp; Parrish St"},{"lng":"-75.173462","lat":"39.9052","stopid":"356","stopname":"Broad St &amp; Pattison Av - 2 NS"},{"lng":"-75.173283","lat":"39.905735","stopid":"31487","stopname":"Broad St &amp; Pattison Av - 3 FS"},{"lng":"-75.165158","lat":"39.945692","stopid":"15189","stopname":"Broad St &amp; Pine St"},{"lng":"-75.165018","lat":"39.945433","stopid":"5281","stopname":"Broad St &amp; Pine St"},{"lng":"-75.157146","lat":"39.981598","stopid":"17279","stopname":"Broad St &amp; Polett Walk"},{"lng":"-75.17243","lat":"39.913194","stopid":"17203","stopname":"Broad St &amp; Pollack St"},{"lng":"-75.172066","lat":"39.912881","stopid":"17231","stopname":"Broad St &amp; Pollack St"},{"lng":"-75.159835","lat":"39.97034","stopid":"17164","stopname":"Broad St &amp; Poplar St"},{"lng":"-75.159576","lat":"39.970081","stopid":"17271","stopname":"Broad St &amp; Poplar St"},{"lng":"-75.170709","lat":"39.919268","stopid":"17234","stopname":"Broad St &amp; Porter St"},{"lng":"-75.170861","lat":"39.919545","stopid":"5287","stopname":"Broad St &amp; Porter St"},{"lng":"-75.162934","lat":"39.956361","stopid":"17170","stopname":"Broad St &amp; Race St"},{"lng":"-75.162663","lat":"39.956102","stopid":"17262","stopname":"Broad St &amp; Race St"},{"lng":"-75.167768","lat":"39.932819","stopid":"17246","stopname":"Broad St &amp; Reed  St"},{"lng":"-75.16792","lat":"39.933078","stopid":"17184","stopname":"Broad St &amp; Reed St"},{"lng":"-75.160417","lat":"39.966254","stopid":"17268","stopname":"Broad St &amp; Ridge Av"},{"lng":"-75.160664","lat":"39.966558","stopid":"17165","stopname":"Broad St &amp; Ridge Av - FS"},{"lng":"-75.170433","lat":"39.920544","stopid":"17235","stopname":"Broad St &amp; Ritner St"},{"lng":"-75.170597","lat":"39.920794","stopid":"5296","stopname":"Broad St &amp; Ritner St"},{"lng":"-75.16372","lat":"39.951437","stopid":"20414","stopname":"Broad St &amp; S Penn Square"},{"lng":"-75.170938","lat":"39.918002","stopid":"17233","stopname":"Broad St &amp; Shunk St"},{"lng":"-75.171138","lat":"39.918252","stopid":"5305","stopname":"Broad St &amp; Shunk St"},{"lng":"-75.169617","lat":"39.924264","stopid":"17238","stopname":"Broad St &amp; Snyder Av"},{"lng":"-75.169769","lat":"39.924541","stopid":"5308","stopname":"Broad St &amp; Snyder Av"},{"lng":"-75.154351","lat":"39.995631","stopid":"17132","stopname":"Broad St &amp; Somerset St"},{"lng":"-75.154175","lat":"39.995425","stopid":"17290","stopname":"Broad St &amp; Somerset St"},{"lng":"-75.165426","lat":"39.943524","stopid":"14996","stopname":"Broad St &amp; South St"},{"lng":"-75.165579","lat":"39.943756","stopid":"15191","stopname":"Broad St &amp; South St"},{"lng":"-75.161494","lat":"39.962579","stopid":"17168","stopname":"Broad St &amp; Spring Garden St"},{"lng":"-75.161366","lat":"39.96199","stopid":"17265","stopname":"Broad St &amp; Spring Garden St"},{"lng":"-75.164858","lat":"39.947102","stopid":"15188","stopname":"Broad St &amp; Spruce St"},{"lng":"-75.164705","lat":"39.946869","stopid":"5318","stopname":"Broad St &amp; Spruce St"},{"lng":"-75.156313","lat":"39.986371","stopid":"17138","stopname":"Broad St &amp; Susquehanna Av"},{"lng":"-75.156148","lat":"39.986147","stopid":"17282","stopname":"Broad St &amp; Susquehanna Av"},{"lng":"-75.168449","lat":"39.930607","stopid":"17189","stopname":"Broad St &amp; Tasker St"},{"lng":"-75.168284","lat":"39.930393","stopid":"17244","stopname":"Broad St &amp; Tasker St"},{"lng":"-75.158962","lat":"39.973087","stopid":"17273","stopname":"Broad St &amp; Thompson St"},{"lng":"-75.159233","lat":"39.973284","stopid":"5328","stopname":"Broad St &amp; Thompson St"},{"lng":"-75.162502","lat":"39.958181","stopid":"31123","stopname":"Broad St &amp; Vine St"},{"lng":"-75.162123","lat":"39.958475","stopid":"17263","stopname":"Broad St &amp; Vine St - FS"},{"lng":"-75.160964","lat":"39.965273","stopid":"17166","stopname":"Broad St &amp; Wallace St"},{"lng":"-75.160621","lat":"39.965326","stopid":"17267","stopname":"Broad St &amp; Wallace St - FS"},{"lng":"-75.164341","lat":"39.949457","stopid":"15186","stopname":"Broad St &amp; Walnut St"},{"lng":"-75.164201","lat":"39.949206","stopid":"15941","stopname":"Broad St &amp; Walnut St"},{"lng":"-75.166816","lat":"39.938002","stopid":"148","stopname":"Broad St &amp; Washington Av"},{"lng":"-75.166687","lat":"39.937681","stopid":"18273","stopname":"Broad St &amp; Washington Av"},{"lng":"-75.152668","lat":"40.003026","stopid":"17121","stopname":"Broad St &amp; Westmoreland Av - FS"},{"lng":"-75.167632","lat":"39.934282","stopid":"17182","stopname":"Broad St &amp; Wharton St"},{"lng":"-75.16748","lat":"39.934032","stopid":"17247","stopname":"Broad St &amp; Wharton St"},{"lng":"-75.170333","lat":"39.922025","stopid":"17198","stopname":"Broad St &amp; Wolf St"},{"lng":"-75.170181","lat":"39.921766","stopid":"17236","stopname":"Broad St &amp; Wolf St"},{"lng":"-75.155475","lat":"39.989243","stopid":"17284","stopname":"Broad St &amp; York St"},{"lng":"-75.155723","lat":"39.989092","stopid":"17136","stopname":"Broad St &amp; York St - FS"},{"lng":"-75.137762","lat":"40.03888","stopid":"16045","stopname":"Chew Av &amp; 10th St"},{"lng":"-75.138873","lat":"40.039052","stopid":"16044","stopname":"Chew Av &amp; 11th St - FS"},{"lng":"-75.141871","lat":"40.007973","stopid":"18193","stopname":"Erie Av &amp; 8th St"},{"lng":"-75.14108","lat":"40.007873","stopid":"17425","stopname":"Erie Av &amp; Rising Sun Av"},{"lng":"-75.138851","lat":"40.032885","stopid":"17393","stopname":"Fisher Av &amp; 10th St"},{"lng":"-75.139823","lat":"40.040866","stopid":"17400","stopname":"Grange Av 11th St - FS"},{"lng":"-75.138719","lat":"40.042158","stopid":"21193","stopname":"Nedro Av &amp; 11th St"},{"lng":"-75.146586","lat":"40.005208","stopid":"16160","stopname":"Rising Sun Av &amp;  11th St"},{"lng":"-75.146764","lat":"40.004994","stopid":"17366","stopname":"Rising Sun Av &amp; 11th St"},{"lng":"-75.142963","lat":"40.006833","stopid":"16159","stopname":"Rising Sun Av &amp; 9th St"},{"lng":"-75.143153","lat":"40.006592","stopid":"17367","stopname":"Rising Sun Av &amp; 9th St"},{"lng":"-75.149309","lat":"40.003804","stopid":"17363","stopname":"Rising Sun Av &amp; Germantown Av"},{"lng":"-75.14938","lat":"40.003929","stopid":"16162","stopname":"Rising Sun Av &amp; Germantown Av - FS"},{"lng":"-75.148527","lat":"40.004346","stopid":"16161","stopname":"Rising Sun Av &amp; Old York Rd"},{"lng":"-75.148326","lat":"40.004292","stopid":"17365","stopname":"Rising Sun Av &amp; Old York Rd - FS"},{"lng":"-75.151793","lat":"40.003247","stopid":"30065","stopname":"Rising Sun Av &amp; Westmoreland St - FS"},{"lng":"-75.138853","lat":"40.026494","stopid":"28700","stopname":"Rockland St &amp; 9th St"},{"lng":"-75.139446","lat":"40.034814","stopid":"16058","stopname":"Wagner Av &amp; Warnock St - FS"}]