[{"lng":"-75.149782","lat":"39.961286","stopid":"736","stopname":"7th St &amp; Spring Garden St"},{"lng":"-75.151278","lat":"39.956452","stopid":"18519","stopname":"7th St &amp; Vine St"},{"lng":"-75.150289","lat":"39.958601","stopid":"18520","stopname":"7th St &amp; Willow St"},{"lng":"-75.150084","lat":"39.959582","stopid":"26056","stopname":"7th St &amp; Willow St - MBFS"},{"lng":"-75.153215","lat":"39.953297","stopid":"16289","stopname":"8th St &amp; Arch St"},{"lng":"-75.155727","lat":"39.941638","stopid":"26053","stopname":"8th St &amp; Bainbridge St"},{"lng":"-75.152132","lat":"39.958435","stopid":"18441","stopname":"8th St &amp; Callowhill St"},{"lng":"-75.156688","lat":"39.937294","stopid":"16300","stopname":"8th St &amp; Carpenter St"},{"lng":"-75.156172","lat":"39.939666","stopid":"16298","stopname":"8th St &amp; Catharine St"},{"lng":"-75.153022","lat":"39.954198","stopid":"16288","stopname":"8th St &amp; Cherry St"},{"lng":"-75.153984","lat":"39.949711","stopid":"16290","stopname":"8th St &amp; Chestnut St"},{"lng":"-75.156376","lat":"39.938667","stopid":"16299","stopname":"8th St &amp; Christian St"},{"lng":"-75.158202","lat":"39.930505","stopid":"16304","stopname":"8th St &amp; Dickinson St"},{"lng":"-75.157373","lat":"39.934145","stopid":"16301","stopname":"8th St &amp; Federal St"},{"lng":"-75.155955","lat":"39.940657","stopid":"16297","stopname":"8th St &amp; Fitzwater St"},{"lng":"-75.160076","lat":"39.921959","stopid":"16310","stopname":"8th St &amp; Jackson St"},{"lng":"-75.154549","lat":"39.947088","stopid":"16292","stopname":"8th St &amp; Locust St"},{"lng":"-75.155331","lat":"39.94352","stopid":"16295","stopname":"8th St &amp; Lombard St"},{"lng":"-75.153624","lat":"39.951343","stopid":"728","stopname":"8th St &amp; Market St"},{"lng":"-75.159523","lat":"39.924403","stopid":"16309","stopname":"8th St &amp; McKean St"},{"lng":"-75.158995","lat":"39.926839","stopid":"16307","stopname":"8th St &amp; Moore St"},{"lng":"-75.15873","lat":"39.928061","stopid":"16306","stopname":"8th St &amp; Morris St"},{"lng":"-75.151938","lat":"39.959693","stopid":"24339","stopname":"8th St &amp; Noble St"},{"lng":"-75.161409","lat":"39.915706","stopid":"21253","stopname":"8th St &amp; Oregon Av"},{"lng":"-75.157133","lat":"39.935215","stopid":"24345","stopname":"8th St &amp; Passyunk Av"},{"lng":"-75.155103","lat":"39.944403","stopid":"16294","stopname":"8th St &amp; Pine St"},{"lng":"-75.160869","lat":"39.91823","stopid":"16313","stopname":"8th St &amp; Porter St"},{"lng":"-75.152806","lat":"39.955188","stopid":"18442","stopname":"8th St &amp; Race St"},{"lng":"-75.157902","lat":"39.931718","stopid":"16303","stopname":"8th St &amp; Reed St"},{"lng":"-75.160604","lat":"39.91947","stopid":"16312","stopname":"8th St &amp; Ritner St"},{"lng":"-75.161168","lat":"39.916981","stopid":"16314","stopname":"8th St &amp; Shunk St"},{"lng":"-75.159799","lat":"39.92319","stopid":"730","stopname":"8th St &amp; Snyder Av"},{"lng":"-75.155559","lat":"39.942485","stopid":"16296","stopname":"8th St &amp; South St"},{"lng":"-75.151871","lat":"39.961683","stopid":"20855","stopname":"8th St &amp; Spring Garden St"},{"lng":"-75.151862","lat":"39.960969","stopid":"1220","stopname":"8th St &amp; Spring Garden St - MBFS"},{"lng":"-75.154826","lat":"39.945822","stopid":"16293","stopname":"8th St &amp; Spruce St"},{"lng":"-75.158454","lat":"39.929283","stopid":"16305","stopname":"8th St &amp; Tasker St"},{"lng":"-75.152301","lat":"39.957472","stopid":"24119","stopname":"8th St &amp; Vine St"},{"lng":"-75.154297","lat":"39.948221","stopid":"16291","stopname":"8th St &amp; Walnut St"},{"lng":"-75.154381","lat":"39.947864","stopid":"30992","stopname":"8th St &amp; Walnut St - FS"},{"lng":"-75.156953","lat":"39.936045","stopid":"729","stopname":"8th St &amp; Washington Av"},{"lng":"-75.157638","lat":"39.932949","stopid":"16302","stopname":"8th St &amp; Wharton St"},{"lng":"-75.160328","lat":"39.920737","stopid":"16311","stopname":"8th St &amp; Wolf St"},{"lng":"-75.154656","lat":"39.953273","stopid":"24335","stopname":"9th St &amp; Arch St"},{"lng":"-75.157191","lat":"39.941659","stopid":"24328","stopname":"9th St &amp; Bainbridge St"},{"lng":"-75.158093","lat":"39.937493","stopid":"24325","stopname":"9th St &amp; Carpenter St"},{"lng":"-75.157612","lat":"39.939687","stopid":"24326","stopname":"9th St &amp; Catherine St"},{"lng":"-75.155448","lat":"39.949741","stopid":"24121","stopname":"9th St &amp; Chestnut St"},{"lng":"-75.15778","lat":"39.938911","stopid":"30874","stopname":"9th St &amp; Christian St"},{"lng":"-75.154799","lat":"39.952836","stopid":"915","stopname":"9th St &amp; Cuthbert St"},{"lng":"-75.15963","lat":"39.930535","stopid":"24320","stopname":"9th St &amp; Dickinson St"},{"lng":"-75.158609","lat":"39.93512","stopid":"24324","stopname":"9th St &amp; Ellsworth St"},{"lng":"-75.158802","lat":"39.934165","stopid":"24323","stopname":"9th St &amp; Federal St"},{"lng":"-75.157396","lat":"39.940695","stopid":"24327","stopname":"9th St &amp; Fitzwater St"},{"lng":"-75.161527","lat":"39.921989","stopid":"24313","stopname":"9th St &amp; Jackson St"},{"lng":"-75.156002","lat":"39.947091","stopid":"24333","stopname":"9th St &amp; Locust St"},{"lng":"-75.156783","lat":"39.943523","stopid":"24330","stopname":"9th St &amp; Lombard St"},{"lng":"-75.155124","lat":"39.951177","stopid":"32524","stopname":"9th St &amp; Market St"},{"lng":"-75.160987","lat":"39.924451","stopid":"24315","stopname":"9th St &amp; McKean St"},{"lng":"-75.160723","lat":"39.925646","stopid":"24316","stopname":"9th St &amp; Mifflin St"},{"lng":"-75.160435","lat":"39.926886","stopid":"24317","stopname":"9th St &amp; Moore St"},{"lng":"-75.160159","lat":"39.9281","stopid":"24318","stopname":"9th St &amp; Morris St"},{"lng":"-75.162801","lat":"39.915976","stopid":"21254","stopname":"9th St &amp; Oregon Av - FS"},{"lng":"-75.156591","lat":"39.944415","stopid":"24331","stopname":"9th St &amp; Pine St"},{"lng":"-75.162379","lat":"39.918225","stopid":"24310","stopname":"9th St &amp; Porter St"},{"lng":"-75.154271","lat":"39.95512","stopid":"32220","stopname":"9th St &amp; Race St"},{"lng":"-75.159354","lat":"39.931739","stopid":"24321","stopname":"9th St &amp; Reed St"},{"lng":"-75.162056","lat":"39.919518","stopid":"24311","stopname":"9th St &amp; Ritner St"},{"lng":"-75.162644","lat":"39.916949","stopid":"24309","stopname":"9th St &amp; Shunk St"},{"lng":"-75.161275","lat":"39.923193","stopid":"24314","stopname":"9th St &amp; Snyder Av"},{"lng":"-75.157011","lat":"39.942515","stopid":"24329","stopname":"9th St &amp; South St"},{"lng":"-75.15629","lat":"39.94586","stopid":"24332","stopname":"9th St &amp; Spruce St"},{"lng":"-75.159883","lat":"39.929313","stopid":"24319","stopname":"9th St &amp; Tasker St"},{"lng":"-75.155761","lat":"39.948224","stopid":"24334","stopname":"9th St &amp; Walnut St"},{"lng":"-75.158381","lat":"39.936235","stopid":"1216","stopname":"9th St &amp; Washington Av"},{"lng":"-75.15909","lat":"39.932926","stopid":"24322","stopname":"9th St &amp; Wharton St"},{"lng":"-75.16178","lat":"39.920758","stopid":"24312","stopname":"9th St &amp; Wolf St"},{"lng":"-75.151542","lat":"39.955159","stopid":"24336","stopname":"Franklin St &amp; Race St - FS"},{"lng":"-75.156573","lat":"39.915035","stopid":"16496","stopname":"Oregon Av &amp; 5th St"},{"lng":"-75.156503","lat":"39.914803","stopid":"24347","stopname":"Oregon Av &amp; 5th St - FS"},{"lng":"-75.158083","lat":"39.915243","stopid":"16497","stopname":"Oregon Av &amp; 6th St"},{"lng":"-75.158355","lat":"39.915066","stopid":"18578","stopname":"Oregon Av &amp; 6th St"},{"lng":"-75.159983","lat":"39.915256","stopid":"18577","stopname":"Oregon Av &amp; 7th St"},{"lng":"-75.159687","lat":"39.915434","stopid":"732","stopname":"Oregon Av &amp; 7th St"},{"lng":"-75.161256","lat":"39.915643","stopid":"24308","stopname":"Oregon Av &amp; 8th St"},{"lng":"-75.156475","lat":"39.912812","stopid":"99","stopname":"Whitman Plaza - 1"},{"lng":"-75.155728","lat":"39.91373","stopid":"24973","stopname":"Whitman Plaza - 2"}]